[
  {
    "region": "USA",
    "cities": [
      { "name": "New York", "positions": [{ "lat": 40.763978, "lng": -73.973235, "pov": -150 }, { "lat": 40.758938, "lng": -73.985155, "pov": -179 }, { "lat": 40.730846, "lng": -73.955018, "pov": -99 }] },
      { "name": "Los Angeles", "positions": [{ "lat": 34.101546, "lng": -118.341008, "pov": 95 }, { "lat": 34.044029, "lng": -118.267743, "pov": 117 }, { "lat": 34.055225, "lng": -118.24911, "pov": -119 }] },
      { "name": "Chicago", "positions": [{ "lat": 41.875929, "lng": -87.627618, "pov": -2 }, { "lat": 41.878794, "lng": -87.636697, "pov": 2 }, { "lat": 41.882897, "lng": -87.624221, "pov": -7 }] },
      { "name": "Houston", "positions": [{ "lat": 29.760955, "lng": -95.369744, "pov": 138 }, { "lat": 29.759659, "lng": -95.369398, "pov": 125 }, { "lat": 29.755789, "lng": -95.357491, "pov": -58 }] },
      { "name": "Philadelphia", "positions": [{ "lat": 39.949109, "lng": -75.149801, "pov": -77 }, { "lat": 39.952195, "lng": -75.161974, "pov": -87 }, { "lat": 39.950762, "lng": -75.195152, "pov": -83 }] },
      { "name": "Phoenix", "positions": [{ "lat": 33.450384, "lng": -112.068922, "pov": -91 }, { "lat": 33.446722, "lng": -112.070957, "pov": -70 }, { "lat": 33.448246, "lng": -112.07629, "pov": -87 }] },
      { "name": "San Antonio", "positions": [{ "lat": 29.424247, "lng": -98.493283, "pov": -173 }, { "lat": 29.426531, "lng": -98.486748, "pov": 85 }, { "lat": 29.433092, "lng": -98.492882, "pov": 167 }] },
      { "name": "San Diego", "positions": [{ "lat": 32.689008, "lng": -117.153968, "pov": -6 }, { "lat": 32.73143, "lng": -117.152268, "pov": -73 }, { "lat": 32.714664, "lng": -117.162975, "pov": -97 }] },
      { "name": "Dallas", "positions": [{ "lat": 32.788613, "lng": -96.79848, "pov": 118 }, { "lat": 32.781556, "lng": -96.798696, "pov": 85 }, { "lat": 32.778355, "lng": -96.807697, "pov": -9 }] },
      { "name": "San Jose", "positions": [{ "lat": 37.332317, "lng": -121.889231, "pov": -27 }, { "lat": 37.338425, "lng": -121.886487, "pov": 148 }, { "lat": 37.333586, "lng": -121.890862, "pov": 63 }] },
      { "name": "Austin", "positions": [{ "lat": 30.26211, "lng": -97.745036, "pov": 18 }, { "lat": 30.257964, "lng": -97.739514, "pov": -63 }, { "lat": 30.276606, "lng": -97.739617, "pov": -157 }] },
      { "name": "Jacksonville", "positions": [{ "lat": 30.326211, "lng": -81.643543, "pov": -162 }, { "lat": 30.323426, "lng": -81.658522, "pov": 12 }, { "lat": 30.326611, "lng": -81.659439, "pov": -170 }] },
      { "name": "Indianapolis", "positions": [{ "lat": 39.769351, "lng": -86.158007, "pov": -173 }, { "lat": 39.765684, "lng": -86.160124, "pov": 94 }, { "lat": 39.768663, "lng": -86.163924, "pov": 86 }] },
      { "name": "San Francisco", "positions": [{ "lat": 37.795893, "lng": -122.403828, "pov": 149 }, { "lat": 37.785236, "lng": -122.403256, "pov": 47 }, { "lat": 37.775991, "lng": -122.432911, "pov": 10 }] },
      { "name": "Columbus", "positions": [{ "lat": 39.965274, "lng": -82.989558, "pov": -103 }, { "lat": 39.962748, "lng": -83.002491, "pov": -98 }, { "lat": 39.961683, "lng": -83.005275, "pov": 104 }] },
      { "name": "Detroit", "positions": [{ "lat": 42.331001, "lng": -83.046152, "pov": -17 }, { "lat": 42.338762, "lng": -83.052079, "pov": 162 }, { "lat": 42.32967, "lng": -83.041782, "pov": 69 }] },
      { "name": "Denver", "positions": [{ "lat": 39.740328, "lng": -104.984864, "pov": 181 }, { "lat": 39.748871, "lng": -105.006234, "pov": -148 }, { "lat": 39.748315, "lng": -104.995063, "pov": -138 }] },
      { "name": "Boston", "positions": [{ "lat": 42.357612, "lng": -71.063143, "pov": -37 }, { "lat": 42.35888, "lng": -71.056816, "pov": -107 }, { "lat": 42.352655, "lng": -71.055534, "pov": 137 }] },
      { "name": "Seattle", "positions": [{ "lat": 47.619185, "lng": -122.348918, "pov": -7 }, { "lat": 47.606705, "lng": -122.33377, "pov": 59 }, { "lat": 47.609183, "lng": -122.344903, "pov": 123 }] },
      { "name": "Portland", "positions": [{ "lat": 45.513427, "lng": -122.672071, "pov": -63 }, { "lat": 45.516823, "lng": -122.681587, "pov": 123 }, { "lat": 45.517837, "lng": -122.683283, "pov": 20 }] },
      { "name": "Charlotte", "positions": [{ "lat": 35.222938, "lng": -80.849207, "pov": 58 }, { "lat": 35.226245, "lng": -80.83991, "pov": 136 }, { "lat": 35.226894, "lng": -80.841039, "pov": 58 }] },
      { "name": "Washington DC", "positions": [{ "lat": 38.907688, "lng": -77.071002, "pov": -95 }, { "lat": 38.894324, "lng": -77.028141, "pov": -175 }, { "lat": 38.887586, "lng": -77.009065, "pov": 99 }] },
      { "name": "Las Vegas", "positions": [{ "lat": 36.122401, "lng": -115.171463, "pov": 171 }, { "lat": 36.12885, "lng": -115.166975, "pov": 25 }, { "lat": 36.170089, "lng": -115.144543, "pov": -146 }] },
      { "name": "Miami", "positions": [{ "lat": 25.780505, "lng": -80.189081, "pov": 1 }, { "lat": 25.765759, "lng": -80.186093, "pov": 111 }, { "lat": 25.836875, "lng": -80.120901, "pov": 177 }] },
      { "name": "Honolulu", "positions": [{ "lat": 21.273211, "lng": -157.823615, "pov": 147 }, { "lat": 21.279579, "lng": -157.823402, "pov": -29 }, { "lat": 21.314154, "lng": -157.866395, "pov": 121 }] }
    ]
  },
  {
    "region": "Rest of America",
    "cities": [
      { "name": "Montreal", "positions": [{ "lat": 37.869566, "lng": -122.252523 }] },
      { "name": "Vancouver", "positions": [{ "lat": 37.869566, "lng": -122.252523 }] },
      { "name": "Mexico City", "positions": [{ "lat": 37.869566, "lng": -122.252523 }] },
      { "name": "Acapulco", "positions": [{ "lat": 37.869566, "lng": -122.252523 }] },
      { "name": "Rio de Janeiro", "positions": [{ "lat": 37.869566, "lng": -122.252523 }] }
    ]
  },
  {
    "region": "Europe",
    "cities": [
      { "name": "London", "positions": [{ "lat": 37.869566, "lng": -122.252523 }] },
      { "name": "Paris", "positions": [{ "lat": 37.869566, "lng": -122.252523 }] },
      { "name": "Berlin", "positions": [{ "lat": 37.869566, "lng": -122.252523 }] },
      { "name": "Amsterdam", "positions": [{ "lat": 37.869566, "lng": -122.252523 }] },
      { "name": "Rome", "positions": [{ "lat": 37.869566, "lng": -122.252523 }] }
    ]
  },
  {
    "region": "Rest of the World",
    "cities": [
      { "name": "Tokyo", "positions": [{ "lat": 37.869566, "lng": -122.252523 }] },
      { "name": "Sydney", "positions": [{ "lat": 37.869566, "lng": -122.252523 }] },
      { "name": "Cape Town", "positions": [{ "lat": 37.869566, "lng": -122.252523 }] },
      { "name": "Seoul", "positions": [{ "lat": 37.869566, "lng": -122.252523 }] },
      { "name": "Auckland", "positions": [{ "lat": 37.869566, "lng": -122.252523 }] }
    ]
  }
]
